[
  {
    "id": 1,
    "ref": "albert_park",
    "name": "Albert Park Grand Prix Circuit",
    "location": "Melbourne",
    "country": "Australia",
    "lat": -37.8497,
    "lng": 144.968,
    "alt": 10,
    "stats": {
      "totalRaces": 27,
      "firstRace": 1996,
      "lastRace": 2024
    }
  },
  {
    "id": 2,
    "ref": "sepang",
    "name": "Sepang International Circuit",
    "location": "Kuala Lumpur",
    "country": "Malaysia",
    "lat": 2.76083,
    "lng": 101.738,
    "alt": 18,
    "stats": {
      "totalRaces": 19,
      "firstRace": 1999,
      "lastRace": 2017
    }
  },
  {
    "id": 3,
    "ref": "bahrain",
    "name": "Bahrain International Circuit",
    "location": "Sakhir",
    "country": "Bahrain",
    "lat": 26.0325,
    "lng": 50.5106,
    "alt": 7,
    "stats": {
      "totalRaces": 21,
      "firstRace": 2004,
      "lastRace": 2024
    }
  },
  {
    "id": 4,
    "ref": "catalunya",
    "name": "Circuit de Barcelona-Catalunya",
    "location": "Montmeló",
    "country": "Spain",
    "lat": 41.57,
    "lng": 2.26111,
    "alt": 109,
    "stats": {
      "totalRaces": 34,
      "firstRace": 1991,
      "lastRace": 2024
    }
  },
  {
    "id": 5,
    "ref": "istanbul",
    "name": "Istanbul Park",
    "location": "Istanbul",
    "country": "Turkey",
    "lat": 40.9517,
    "lng": 29.405,
    "alt": 130,
    "stats": {
      "totalRaces": 9,
      "firstRace": 2005,
      "lastRace": 2021
    }
  },
  {
    "id": 6,
    "ref": "monaco",
    "name": "Circuit de Monaco",
    "location": "Monte-Carlo",
    "country": "Monaco",
    "lat": 43.7347,
    "lng": 7.42056,
    "alt": 7,
    "stats": {
      "totalRaces": 70,
      "firstRace": 1950,
      "lastRace": 2024
    }
  },
  {
    "id": 7,
    "ref": "villeneuve",
    "name": "Circuit Gilles Villeneuve",
    "location": "Montreal",
    "country": "Canada",
    "lat": 45.5,
    "lng": -73.5228,
    "alt": 13,
    "stats": {
      "totalRaces": 43,
      "firstRace": 1978,
      "lastRace": 2024
    }
  },
  {
    "id": 8,
    "ref": "magny_cours",
    "name": "Circuit de Nevers Magny-Cours",
    "location": "Magny Cours",
    "country": "France",
    "lat": 46.8642,
    "lng": 3.16361,
    "alt": 228,
    "stats": {
      "totalRaces": 18,
      "firstRace": 1991,
      "lastRace": 2008
    }
  },
  {
    "id": 9,
    "ref": "silverstone",
    "name": "Silverstone Circuit",
    "location": "Silverstone",
    "country": "UK",
    "lat": 52.0786,
    "lng": -1.01694,
    "alt": 153,
    "stats": {
      "totalRaces": 59,
      "firstRace": 1950,
      "lastRace": 2024
    }
  },
  {
    "id": 10,
    "ref": "hockenheimring",
    "name": "Hockenheimring",
    "location": "Hockenheim",
    "country": "Germany",
    "lat": 49.3278,
    "lng": 8.56583,
    "alt": 103,
    "stats": {
      "totalRaces": 37,
      "firstRace": 1970,
      "lastRace": 2019
    }
  },
  {
    "id": 11,
    "ref": "hungaroring",
    "name": "Hungaroring",
    "location": "Budapest",
    "country": "Hungary",
    "lat": 47.5789,
    "lng": 19.2486,
    "alt": 264,
    "stats": {
      "totalRaces": 39,
      "firstRace": 1986,
      "lastRace": 2024
    }
  },
  {
    "id": 12,
    "ref": "valencia",
    "name": "Valencia Street Circuit",
    "location": "Valencia",
    "country": "Spain",
    "lat": 39.4589,
    "lng": -0.331667,
    "alt": 4,
    "stats": {
      "totalRaces": 5,
      "firstRace": 2008,
      "lastRace": 2012
    }
  },
  {
    "id": 13,
    "ref": "spa",
    "name": "Circuit de Spa-Francorchamps",
    "location": "Spa",
    "country": "Belgium",
    "lat": 50.4372,
    "lng": 5.97139,
    "alt": 401,
    "stats": {
      "totalRaces": 57,
      "firstRace": 1950,
      "lastRace": 2024
    }
  },
  {
    "id": 14,
    "ref": "monza",
    "name": "Autodromo Nazionale di Monza",
    "location": "Monza",
    "country": "Italy",
    "lat": 45.6156,
    "lng": 9.28111,
    "alt": 162,
    "stats": {
      "totalRaces": 74,
      "firstRace": 1950,
      "lastRace": 2024
    }
  },
  {
    "id": 15,
    "ref": "marina_bay",
    "name": "Marina Bay Street Circuit",
    "location": "Marina Bay",
    "country": "Singapore",
    "lat": 1.2914,
    "lng": 103.864,
    "alt": 18,
    "stats": {
      "totalRaces": 15,
      "firstRace": 2008,
      "lastRace": 2024
    }
  },
  {
    "id": 16,
    "ref": "fuji",
    "name": "Fuji Speedway",
    "location": "Oyama",
    "country": "Japan",
    "lat": 35.3717,
    "lng": 138.927,
    "alt": 583,
    "stats": {
      "totalRaces": 4,
      "firstRace": 1976,
      "lastRace": 2008
    }
  },
  {
    "id": 17,
    "ref": "shanghai",
    "name": "Shanghai International Circuit",
    "location": "Shanghai",
    "country": "China",
    "lat": 31.3389,
    "lng": 121.22,
    "alt": 5,
    "stats": {
      "totalRaces": 17,
      "firstRace": 2004,
      "lastRace": 2024
    }
  },
  {
    "id": 18,
    "ref": "interlagos",
    "name": "Autódromo José Carlos Pace",
    "location": "São Paulo",
    "country": "Brazil",
    "lat": -23.7036,
    "lng": -46.6997,
    "alt": 785,
    "stats": {
      "totalRaces": 41,
      "firstRace": 1973,
      "lastRace": 2024
    }
  },
  {
    "id": 19,
    "ref": "indianapolis",
    "name": "Indianapolis Motor Speedway",
    "location": "Indianapolis",
    "country": "USA",
    "lat": 39.795,
    "lng": -86.2347,
    "alt": 223,
    "stats": {
      "totalRaces": 19,
      "firstRace": 1950,
      "lastRace": 2007
    }
  },
  {
    "id": 20,
    "ref": "nurburgring",
    "name": "Nürburgring",
    "location": "Nürburg",
    "country": "Germany",
    "lat": 50.3356,
    "lng": 6.9475,
    "alt": 578,
    "stats": {
      "totalRaces": 41,
      "firstRace": 1951,
      "lastRace": 2020
    }
  },
  {
    "id": 21,
    "ref": "imola",
    "name": "Autodromo Enzo e Dino Ferrari",
    "location": "Imola",
    "country": "Italy",
    "lat": 44.3439,
    "lng": 11.7167,
    "alt": 37,
    "stats": {
      "totalRaces": 31,
      "firstRace": 1980,
      "lastRace": 2024
    }
  },
  {
    "id": 22,
    "ref": "suzuka",
    "name": "Suzuka Circuit",
    "location": "Suzuka",
    "country": "Japan",
    "lat": 34.8431,
    "lng": 136.541,
    "alt": 45,
    "stats": {
      "totalRaces": 34,
      "firstRace": 1987,
      "lastRace": 2024
    }
  },
  {
    "id": 80,
    "ref": "vegas",
    "name": "Las Vegas Strip Street Circuit",
    "location": "Las Vegas",
    "country": "United States",
    "lat": 36.1147,
    "lng": -115.173,
    "alt": 642,
    "stats": {
      "totalRaces": 2,
      "firstRace": 2023,
      "lastRace": 2024
    }
  },
  {
    "id": 24,
    "ref": "yas_marina",
    "name": "Yas Marina Circuit",
    "location": "Abu Dhabi",
    "country": "UAE",
    "lat": 24.4672,
    "lng": 54.6031,
    "alt": 3,
    "stats": {
      "totalRaces": 16,
      "firstRace": 2009,
      "lastRace": 2024
    }
  },
  {
    "id": 25,
    "ref": "galvez",
    "name": "Autódromo Juan y Oscar Gálvez",
    "location": "Buenos Aires",
    "country": "Argentina",
    "lat": -34.6943,
    "lng": -58.4593,
    "alt": 8,
    "stats": {
      "totalRaces": 20,
      "firstRace": 1953,
      "lastRace": 1998
    }
  },
  {
    "id": 26,
    "ref": "jerez",
    "name": "Circuito de Jerez",
    "location": "Jerez de la Frontera",
    "country": "Spain",
    "lat": 36.7083,
    "lng": -6.03417,
    "alt": 37,
    "stats": {
      "totalRaces": 7,
      "firstRace": 1986,
      "lastRace": 1997
    }
  },
  {
    "id": 27,
    "ref": "estoril",
    "name": "Autódromo do Estoril",
    "location": "Estoril",
    "country": "Portugal",
    "lat": 38.7506,
    "lng": -9.39417,
    "alt": 130,
    "stats": {
      "totalRaces": 13,
      "firstRace": 1984,
      "lastRace": 1996
    }
  },
  {
    "id": 28,
    "ref": "okayama",
    "name": "Okayama International Circuit",
    "location": "Okayama",
    "country": "Japan",
    "lat": 34.915,
    "lng": 134.221,
    "alt": 266,
    "stats": {
      "totalRaces": 2,
      "firstRace": 1994,
      "lastRace": 1995
    }
  },
  {
    "id": 29,
    "ref": "adelaide",
    "name": "Adelaide Street Circuit",
    "location": "Adelaide",
    "country": "Australia",
    "lat": -34.9272,
    "lng": 138.617,
    "alt": 58,
    "stats": {
      "totalRaces": 11,
      "firstRace": 1985,
      "lastRace": 1995
    }
  },
  {
    "id": 30,
    "ref": "kyalami",
    "name": "Kyalami",
    "location": "Midrand",
    "country": "South Africa",
    "lat": -25.9894,
    "lng": 28.0767,
    "alt": 1460,
    "stats": {
      "totalRaces": 20,
      "firstRace": 1967,
      "lastRace": 1993
    }
  },
  {
    "id": 31,
    "ref": "donington",
    "name": "Donington Park",
    "location": "Castle Donington",
    "country": "UK",
    "lat": 52.8306,
    "lng": -1.37528,
    "alt": 88,
    "stats": {
      "totalRaces": 1,
      "firstRace": 1993,
      "lastRace": 1993
    }
  },
  {
    "id": 32,
    "ref": "rodriguez",
    "name": "Autódromo Hermanos Rodríguez",
    "location": "Mexico City",
    "country": "Mexico",
    "lat": 19.4042,
    "lng": -99.0907,
    "alt": 2227,
    "stats": {
      "totalRaces": 24,
      "firstRace": 1963,
      "lastRace": 2024
    }
  },
  {
    "id": 33,
    "ref": "phoenix",
    "name": "Phoenix street circuit",
    "location": "Phoenix",
    "country": "USA",
    "lat": 33.4479,
    "lng": -112.075,
    "alt": 345,
    "stats": {
      "totalRaces": 3,
      "firstRace": 1989,
      "lastRace": 1991
    }
  },
  {
    "id": 34,
    "ref": "ricard",
    "name": "Circuit Paul Ricard",
    "location": "Le Castellet",
    "country": "France",
    "lat": 43.2506,
    "lng": 5.79167,
    "alt": 432,
    "stats": {
      "totalRaces": 18,
      "firstRace": 1971,
      "lastRace": 2022
    }
  },
  {
    "id": 35,
    "ref": "yeongam",
    "name": "Korean International Circuit",
    "location": "Yeongam County",
    "country": "Korea",
    "lat": 34.7333,
    "lng": 126.417,
    "alt": 0,
    "stats": {
      "totalRaces": 4,
      "firstRace": 2010,
      "lastRace": 2013
    }
  },
  {
    "id": 36,
    "ref": "jacarepagua",
    "name": "Autódromo Internacional Nelson Piquet",
    "location": "Rio de Janeiro",
    "country": "Brazil",
    "lat": -22.9756,
    "lng": -43.395,
    "alt": 1126,
    "stats": {
      "totalRaces": 10,
      "firstRace": 1978,
      "lastRace": 1989
    }
  },
  {
    "id": 37,
    "ref": "detroit",
    "name": "Detroit Street Circuit",
    "location": "Detroit",
    "country": "USA",
    "lat": 42.3298,
    "lng": -83.0401,
    "alt": 177,
    "stats": {
      "totalRaces": 7,
      "firstRace": 1982,
      "lastRace": 1988
    }
  },
  {
    "id": 38,
    "ref": "brands_hatch",
    "name": "Brands Hatch",
    "location": "Kent",
    "country": "UK",
    "lat": 51.3569,
    "lng": 0.263056,
    "alt": 145,
    "stats": {
      "totalRaces": 14,
      "firstRace": 1964,
      "lastRace": 1986
    }
  },
  {
    "id": 39,
    "ref": "zandvoort",
    "name": "Circuit Park Zandvoort",
    "location": "Zandvoort",
    "country": "Netherlands",
    "lat": 52.3888,
    "lng": 4.54092,
    "alt": 6,
    "stats": {
      "totalRaces": 34,
      "firstRace": 1952,
      "lastRace": 2024
    }
  },
  {
    "id": 40,
    "ref": "zolder",
    "name": "Zolder",
    "location": "Heusden-Zolder",
    "country": "Belgium",
    "lat": 50.9894,
    "lng": 5.25694,
    "alt": 36,
    "stats": {
      "totalRaces": 10,
      "firstRace": 1973,
      "lastRace": 1984
    }
  },
  {
    "id": 41,
    "ref": "dijon",
    "name": "Dijon-Prenois",
    "location": "Dijon",
    "country": "France",
    "lat": 47.3625,
    "lng": 4.89913,
    "alt": 484,
    "stats": {
      "totalRaces": 6,
      "firstRace": 1974,
      "lastRace": 1984
    }
  },
  {
    "id": 42,
    "ref": "dallas",
    "name": "Fair Park",
    "location": "Dallas",
    "country": "USA",
    "lat": 32.7774,
    "lng": -96.7587,
    "alt": 139,
    "stats": {
      "totalRaces": 1,
      "firstRace": 1984,
      "lastRace": 1984
    }
  },
  {
    "id": 43,
    "ref": "long_beach",
    "name": "Long Beach",
    "location": "California",
    "country": "USA",
    "lat": 33.7651,
    "lng": -118.189,
    "alt": 12,
    "stats": {
      "totalRaces": 8,
      "firstRace": 1976,
      "lastRace": 1983
    }
  },
  {
    "id": 44,
    "ref": "las_vegas",
    "name": "Las Vegas Street Circuit",
    "location": "Nevada",
    "country": "USA",
    "lat": 36.1162,
    "lng": -115.174,
    "alt": 639,
    "stats": {
      "totalRaces": 2,
      "firstRace": 1981,
      "lastRace": 1982
    }
  },
  {
    "id": 45,
    "ref": "jarama",
    "name": "Jarama",
    "location": "Madrid",
    "country": "Spain",
    "lat": 40.6171,
    "lng": -3.58558,
    "alt": 609,
    "stats": {
      "totalRaces": 9,
      "firstRace": 1968,
      "lastRace": 1981
    }
  },
  {
    "id": 46,
    "ref": "watkins_glen",
    "name": "Watkins Glen",
    "location": "New York State",
    "country": "USA",
    "lat": 42.3369,
    "lng": -76.9272,
    "alt": 485,
    "stats": {
      "totalRaces": 20,
      "firstRace": 1961,
      "lastRace": 1980
    }
  },
  {
    "id": 47,
    "ref": "anderstorp",
    "name": "Scandinavian Raceway",
    "location": "Anderstorp",
    "country": "Sweden",
    "lat": 57.2653,
    "lng": 13.6042,
    "alt": 153,
    "stats": {
      "totalRaces": 6,
      "firstRace": 1973,
      "lastRace": 1978
    }
  },
  {
    "id": 48,
    "ref": "mosport",
    "name": "Mosport International Raceway",
    "location": "Ontario",
    "country": "Canada",
    "lat": 44.0481,
    "lng": -78.6756,
    "alt": 332,
    "stats": {
      "totalRaces": 8,
      "firstRace": 1967,
      "lastRace": 1977
    }
  },
  {
    "id": 49,
    "ref": "montjuic",
    "name": "Montjuïc",
    "location": "Barcelona",
    "country": "Spain",
    "lat": 41.3664,
    "lng": 2.15167,
    "alt": 79,
    "stats": {
      "totalRaces": 4,
      "firstRace": 1969,
      "lastRace": 1975
    }
  },
  {
    "id": 50,
    "ref": "nivelles",
    "name": "Nivelles-Baulers",
    "location": "Brussels",
    "country": "Belgium",
    "lat": 50.6211,
    "lng": 4.32694,
    "alt": 139,
    "stats": {
      "totalRaces": 2,
      "firstRace": 1972,
      "lastRace": 1974
    }
  },
  {
    "id": 51,
    "ref": "charade",
    "name": "Charade Circuit",
    "location": "Clermont-Ferrand",
    "country": "France",
    "lat": 45.7472,
    "lng": 3.03889,
    "alt": 790,
    "stats": {
      "totalRaces": 4,
      "firstRace": 1965,
      "lastRace": 1972
    }
  },
  {
    "id": 52,
    "ref": "tremblant",
    "name": "Circuit Mont-Tremblant",
    "location": "Quebec",
    "country": "Canada",
    "lat": 46.1877,
    "lng": -74.6099,
    "alt": 214,
    "stats": {
      "totalRaces": 2,
      "firstRace": 1968,
      "lastRace": 1970
    }
  },
  {
    "id": 53,
    "ref": "essarts",
    "name": "Rouen-Les-Essarts",
    "location": "Rouen",
    "country": "France",
    "lat": 49.3306,
    "lng": 1.00458,
    "alt": 81,
    "stats": {
      "totalRaces": 5,
      "firstRace": 1952,
      "lastRace": 1968
    }
  },
  {
    "id": 54,
    "ref": "lemans",
    "name": "Le Mans",
    "location": "Le Mans",
    "country": "France",
    "lat": 47.95,
    "lng": 0.224231,
    "alt": 67,
    "stats": {
      "totalRaces": 1,
      "firstRace": 1967,
      "lastRace": 1967
    }
  },
  {
    "id": 55,
    "ref": "reims",
    "name": "Reims-Gueux",
    "location": "Reims",
    "country": "France",
    "lat": 49.2542,
    "lng": 3.93083,
    "alt": 88,
    "stats": {
      "totalRaces": 11,
      "firstRace": 1950,
      "lastRace": 1966
    }
  },
  {
    "id": 56,
    "ref": "george",
    "name": "Prince George Circuit",
    "location": "Eastern Cape Province",
    "country": "South Africa",
    "lat": -33.0486,
    "lng": 27.8736,
    "alt": 15,
    "stats": {
      "totalRaces": 3,
      "firstRace": 1962,
      "lastRace": 1965
    }
  },
  {
    "id": 57,
    "ref": "zeltweg",
    "name": "Zeltweg",
    "location": "Styria",
    "country": "Austria",
    "lat": 47.2039,
    "lng": 14.7478,
    "alt": 676,
    "stats": {
      "totalRaces": 1,
      "firstRace": 1964,
      "lastRace": 1964
    }
  },
  {
    "id": 58,
    "ref": "aintree",
    "name": "Aintree",
    "location": "Liverpool",
    "country": "UK",
    "lat": 53.4769,
    "lng": -2.94056,
    "alt": 20,
    "stats": {
      "totalRaces": 5,
      "firstRace": 1955,
      "lastRace": 1962
    }
  },
  {
    "id": 59,
    "ref": "boavista",
    "name": "Circuito da Boavista",
    "location": "Oporto",
    "country": "Portugal",
    "lat": 41.1705,
    "lng": -8.67325,
    "alt": 28,
    "stats": {
      "totalRaces": 2,
      "firstRace": 1958,
      "lastRace": 1960
    }
  },
  {
    "id": 60,
    "ref": "riverside",
    "name": "Riverside International Raceway",
    "location": "California",
    "country": "USA",
    "lat": 33.937,
    "lng": -117.273,
    "alt": 470,
    "stats": {
      "totalRaces": 1,
      "firstRace": 1960,
      "lastRace": 1960
    }
  },
  {
    "id": 61,
    "ref": "avus",
    "name": "AVUS",
    "location": "Berlin",
    "country": "Germany",
    "lat": 52.4806,
    "lng": 13.2514,
    "alt": 53,
    "stats": {
      "totalRaces": 1,
      "firstRace": 1959,
      "lastRace": 1959
    }
  },
  {
    "id": 62,
    "ref": "monsanto",
    "name": "Monsanto Park Circuit",
    "location": "Lisbon",
    "country": "Portugal",
    "lat": 38.7197,
    "lng": -9.20306,
    "alt": 158,
    "stats": {
      "totalRaces": 1,
      "firstRace": 1959,
      "lastRace": 1959
    }
  },
  {
    "id": 63,
    "ref": "sebring",
    "name": "Sebring International Raceway",
    "location": "Florida",
    "country": "USA",
    "lat": 27.4547,
    "lng": -81.3483,
    "alt": 18,
    "stats": {
      "totalRaces": 1,
      "firstRace": 1959,
      "lastRace": 1959
    }
  },
  {
    "id": 64,
    "ref": "ain-diab",
    "name": "Ain Diab",
    "location": "Casablanca",
    "country": "Morocco",
    "lat": 33.5786,
    "lng": -7.6875,
    "alt": 19,
    "stats": {
      "totalRaces": 1,
      "firstRace": 1958,
      "lastRace": 1958
    }
  },
  {
    "id": 65,
    "ref": "pescara",
    "name": "Pescara Circuit",
    "location": "Pescara",
    "country": "Italy",
    "lat": 42.475,
    "lng": 14.1508,
    "alt": 129,
    "stats": {
      "totalRaces": 1,
      "firstRace": 1957,
      "lastRace": 1957
    }
  },
  {
    "id": 66,
    "ref": "bremgarten",
    "name": "Circuit Bremgarten",
    "location": "Bern",
    "country": "Switzerland",
    "lat": 46.9589,
    "lng": 7.40194,
    "alt": 551,
    "stats": {
      "totalRaces": 5,
      "firstRace": 1950,
      "lastRace": 1954
    }
  },
  {
    "id": 67,
    "ref": "pedralbes",
    "name": "Circuit de Pedralbes",
    "location": "Barcelona",
    "country": "Spain",
    "lat": 41.3903,
    "lng": 2.11667,
    "alt": 85,
    "stats": {
      "totalRaces": 2,
      "firstRace": 1951,
      "lastRace": 1954
    }
  },
  {
    "id": 68,
    "ref": "buddh",
    "name": "Buddh International Circuit",
    "location": "Uttar Pradesh",
    "country": "India",
    "lat": 28.3487,
    "lng": 77.5331,
    "alt": 194,
    "stats": {
      "totalRaces": 3,
      "firstRace": 2011,
      "lastRace": 2013
    }
  },
  {
    "id": 69,
    "ref": "americas",
    "name": "Circuit of the Americas",
    "location": "Austin",
    "country": "USA",
    "lat": 30.1328,
    "lng": -97.6411,
    "alt": 161,
    "stats": {
      "totalRaces": 12,
      "firstRace": 2012,
      "lastRace": 2024
    }
  },
  {
    "id": 70,
    "ref": "red_bull_ring",
    "name": "Red Bull Ring",
    "location": "Spielberg",
    "country": "Austria",
    "lat": 47.2197,
    "lng": 14.7647,
    "alt": 678,
    "stats": {
      "totalRaces": 38,
      "firstRace": 1970,
      "lastRace": 2024
    }
  },
  {
    "id": 71,
    "ref": "sochi",
    "name": "Sochi Autodrom",
    "location": "Sochi",
    "country": "Russia",
    "lat": 43.4057,
    "lng": 39.9578,
    "alt": 2,
    "stats": {
      "totalRaces": 8,
      "firstRace": 2014,
      "lastRace": 2021
    }
  },
  {
    "id": 73,
    "ref": "baku",
    "name": "Baku City Circuit",
    "location": "Baku",
    "country": "Azerbaijan",
    "lat": 40.3725,
    "lng": 49.8533,
    "alt": -7,
    "stats": {
      "totalRaces": 8,
      "firstRace": 2016,
      "lastRace": 2024
    }
  },
  {
    "id": 75,
    "ref": "portimao",
    "name": "Autódromo Internacional do Algarve",
    "location": "Portimão",
    "country": "Portugal",
    "lat": 37.227,
    "lng": -8.6267,
    "alt": 108,
    "stats": {
      "totalRaces": 2,
      "firstRace": 2020,
      "lastRace": 2021
    }
  },
  {
    "id": 76,
    "ref": "mugello",
    "name": "Autodromo Internazionale del Mugello",
    "location": "Mugello",
    "country": "Italy",
    "lat": 43.9975,
    "lng": 11.3719,
    "alt": 255,
    "stats": {
      "totalRaces": 1,
      "firstRace": 2020,
      "lastRace": 2020
    }
  },
  {
    "id": 77,
    "ref": "jeddah",
    "name": "Jeddah Corniche Circuit",
    "location": "Jeddah",
    "country": "Saudi Arabia",
    "lat": 21.6319,
    "lng": 39.1044,
    "alt": 15,
    "stats": {
      "totalRaces": 4,
      "firstRace": 2021,
      "lastRace": 2024
    }
  },
  {
    "id": 78,
    "ref": "losail",
    "name": "Losail International Circuit",
    "location": "Al Daayen",
    "country": "Qatar",
    "lat": 25.49,
    "lng": 51.4542,
    "alt": 12,
    "stats": {
      "totalRaces": 3,
      "firstRace": 2021,
      "lastRace": 2024
    }
  },
  {
    "id": 79,
    "ref": "miami",
    "name": "Miami International Autodrome",
    "location": "Miami",
    "country": "USA",
    "lat": 25.9581,
    "lng": -80.2389,
    "alt": 0,
    "stats": {
      "totalRaces": 3,
      "firstRace": 2022,
      "lastRace": 2024
    }
  }
]